City_ID,City,Lat,Lng,Max Temp,Humidity,Cloudiness,Wind Speed,Country,Date
0,gaigeturi,33.4644,126.3183,29.2,72,43,0.8,KR,1723853343
1,margate,51.3813,1.3862,15.94,88,92,3.77,GB,1723853343
2,puerto natales,-51.7236,-72.4875,0.36,93,75,2.18,CL,1723853343
3,grytviken,-54.2811,-36.5092,-3.67,53,0,1.1,GS,1723853344
4,port-aux-francais,-49.35,70.2167,1.23,68,56,16.34,TF,1723853344
5,port mathurin,-19.6833,63.4167,22.92,72,34,8.96,MU,1723853344
6,harnai,30.1005,67.9374,26.14,71,98,0.35,PK,1723853344
7,waitangi,-43.9535,-176.5597,9.9,81,80,2.24,NZ,1723853344
8,terra santa,-2.1042,-56.4869,27.28,45,5,1.62,BR,1723853344
9,afaahiti,-17.75,-149.2833,23.0,86,94,9.96,PF,1723853344
10,north bondi,-33.8824,151.2769,20.49,59,20,2.57,AU,1723853344
11,jining,35.405,116.5814,26.96,86,38,1.01,CN,1723853344
12,hawaiian paradise park,19.5933,-154.9731,27.63,80,100,5.14,US,1723853345
13,hermanus,-34.4187,19.2345,7.67,81,0,5.21,ZA,1723853345
14,ribeira grande,38.5167,-28.7,24.32,87,0,3.13,PT,1723853345
15,happy valley-goose bay,53.3168,-60.3315,21.46,55,88,2.1,CA,1723853345
16,fale old settlement,-9.3852,-171.2468,27.94,75,3,10.01,TK,1723853345
17,albany,42.6001,-73.9662,24.4,62,50,1.47,US,1723853345
18,tura,25.5198,90.2201,23.1,98,100,2.18,IN,1723853345
19,adamstown,-25.066,-130.1015,20.35,79,100,10.27,PN,1723853345
20,taro,-8.3862,115.28,21.01,76,7,0.92,ID,1723853345
21,salzwedel,52.85,11.15,19.27,91,85,1.9,DE,1723853345
22,kayangel,8.0823,134.7173,29.28,71,35,2.87,PW,1723853345
23,badger,64.8,-147.5333,14.14,81,100,10.29,US,1723853346
24,da lat,11.9465,108.4419,18.42,92,100,0.48,VN,1723853346
25,barcelos,41.5388,-8.6151,19.22,75,1,1.93,PT,1723853346
26,bilibino,68.0546,166.4372,4.1,99,100,2.7,RU,1723853346
27,tiksi,71.6872,128.8694,11.99,58,59,2.69,RU,1723853346
28,stanley,54.868,-1.6985,12.01,82,0,2.57,GB,1723853346
29,west island,-12.1568,96.8225,24.99,94,100,8.75,CC,1723853346
30,puerto baquerizo moreno,-0.9,-89.6,20.73,88,85,3.78,EC,1723853346
31,wailua homesteads,22.0669,-159.378,27.44,88,100,7.72,US,1723853346
32,iqaluit,63.7506,-68.5145,11.5,46,12,4.47,CA,1723853347
33,panji,-7.7253,114.0995,25.58,55,14,1.67,ID,1723853347
34,lebu,-37.6167,-73.65,8.32,71,46,7.74,CL,1723853347
35,hirara,24.8,125.2833,28.31,85,100,6.88,JP,1723853347
36,cassia,-20.5831,-46.9219,21.85,35,0,1.86,BR,1723853347
37,luderitz,-26.6481,15.1594,11.51,89,35,3.21,NA,1723853347
38,hobyo,5.3505,48.5268,24.35,83,73,12.59,SO,1723853347
39,xining,36.6167,101.7667,11.87,75,71,1.5,CN,1723853347
40,banda aceh,5.5577,95.3222,26.41,78,85,2.96,ID,1723853347
41,ouani,-12.1322,44.4258,24.82,73,0,4.61,KM,1723853347
42,bahia de kino,28.8333,-111.9333,32.83,58,8,4.38,MX,1723853347
43,tegueste,28.5167,-16.3167,22.64,53,0,5.66,ES,1723853347
44,ancud,-41.8697,-73.8203,6.05,83,57,2.87,CL,1723853348
45,laojunmiao,39.8333,97.7333,20.1,29,0,1.54,CN,1723853348
46,teknaf,20.8624,92.3058,25.61,91,96,3.97,BD,1723853348
47,mount isa,-20.7333,139.5,22.87,28,0,7.2,AU,1723853348
48,talnakh,69.4865,88.3972,14.7,66,100,1.4,RU,1723853348
49,kangding,30.0513,101.9603,14.94,80,57,2.05,CN,1723853348
50,whittlesea,-32.1759,26.8244,9.66,26,0,2.17,ZA,1723853348
51,ozorkow,51.9634,19.2914,21.64,63,2,1.71,PL,1723853348
52,nova sintra,14.8667,-24.7167,26.7,85,81,2.84,CV,1723853348
53,st. john's,47.5649,-52.7093,18.77,83,13,1.79,CA,1723853348
54,blackmans bay,-43.0167,147.3167,11.07,96,100,0.89,AU,1723853348
55,port elizabeth,-33.918,25.5701,11.29,98,0,0.45,ZA,1723853348
56,nsunga,-1.1439,31.3947,18.27,74,71,0.45,TZ,1723853349
57,edinburgh of the seven seas,-37.0676,-12.3116,11.11,67,56,15.53,SH,1723853349
58,longyearbyen,78.2186,15.6401,12.91,76,75,8.75,SJ,1723853349
59,enewetak,11.3474,162.3373,28.62,77,100,5.81,MH,1723853349
60,inhambane,-23.865,35.3833,18.79,72,0,3.49,MZ,1723853349
61,bethel,41.3712,-73.414,23.7,81,26,2.05,US,1723853349
62,karagay,58.2667,54.9368,12.18,99,87,3.13,RU,1723853349
63,massenya,11.4039,16.1705,23.5,88,91,2.64,TD,1723853349
64,petukhovo,55.0692,67.9019,10.29,93,16,2.82,RU,1723853349
65,leava,-14.3,-178.1667,26.36,80,89,10.52,WF,1723853349
66,asubulaq,49.5583,83.0558,18.86,65,33,0.72,KZ,1723853349
67,khorixas,-20.3667,14.9667,17.03,34,43,1.06,NA,1723853350
68,thompson,55.7435,-97.8558,23.77,29,1,4.29,CA,1723853350
69,fort bragg,35.139,-79.006,28.91,58,0,0.0,US,1723853350
70,makhambet,47.6667,51.5833,18.29,37,26,4.21,KZ,1723853350
71,pangkalanbuun,-2.6833,111.6167,24.39,94,59,1.25,ID,1723853350
72,ilulissat,69.2167,-51.1,5.01,81,75,0.0,GL,1723853350
73,prince rupert,54.3161,-130.3201,17.05,79,0,7.2,CA,1723853103
74,usinsk,65.9939,57.5281,8.63,85,4,4.54,RU,1723853350
75,daru,-9.0763,143.2092,25.65,82,100,6.91,PG,1723853350
76,pacific grove,36.6177,-121.9166,22.45,79,0,4.12,US,1723853350
77,uttar char fasson,22.2332,90.7132,26.73,89,100,5.48,BD,1723853351
78,la ronge,55.1001,-105.2842,19.24,47,51,1.24,CA,1723853351
79,avarua,-21.2078,-159.775,23.03,56,75,6.17,CK,1723853351
80,kishtwar,33.3167,75.7667,20.75,91,79,0.81,IN,1723853351
81,invercargill,-46.4,168.35,6.68,97,100,0.45,NZ,1723853351
82,berezovyy,51.6667,135.7,17.73,93,67,2.31,RU,1723853351
83,tual,-5.6667,132.75,25.49,84,84,7.99,ID,1723853351
84,qaqortoq,60.7167,-46.0333,6.1,67,0,6.9,GL,1723853351
85,holualoa,19.6228,-155.9522,26.97,82,75,3.6,US,1723853351
86,malango,-2.9627,119.9001,23.17,75,2,0.76,ID,1723853351
87,hekimhan,38.818,37.9312,16.31,61,0,4.15,TR,1723853351
88,karratha,-20.7377,116.8463,22.1,56,0,2.83,AU,1723853352
89,kavaratti,10.5669,72.642,26.1,89,100,8.68,IN,1723853352
90,yellowknife,62.456,-114.3525,18.09,71,25,4.02,CA,1723853352
91,champerico,14.3,-91.9167,29.05,73,100,1.54,GT,1723853352
92,puerto ayora,-0.7393,-90.3518,20.31,95,73,1.34,EC,1723853352
93,kidal,18.4411,1.4078,30.47,56,98,4.14,ML,1723853352
94,petropavlovsk-kamchatsky,53.0452,158.6483,14.33,51,20,2.0,RU,1723853352
95,gunnedah,-30.9833,150.25,16.47,67,30,5.55,AU,1723853352
96,praia da vitoria,38.7333,-27.0667,24.31,85,17,2.07,PT,1723853352
97,mogocha,53.7333,119.7667,15.03,55,81,1.13,RU,1723853352
98,namibe,-15.1961,12.1522,15.36,90,42,3.63,AO,1723853352
99,constantia,44.1833,28.65,20.39,65,13,4.08,RO,1723853353
100,ataq,14.5377,46.8319,27.03,58,100,3.8,YE,1723853353
101,mugumu,-1.85,34.7,18.52,64,72,0.74,TZ,1723853353
102,souillac,-20.5167,57.5167,21.47,81,16,4.55,MU,1723853353
103,jamestown,42.097,-79.2353,22.79,82,100,4.12,US,1723853302
104,amarpatan,24.3167,80.9833,25.61,89,100,1.7,IN,1723853353
105,college,64.8569,-147.8028,13.99,81,100,10.29,US,1723853353
106,iskateley,67.6803,53.1512,6.58,93,9,3.7,RU,1723853353
107,guixi,28.2886,117.2133,28.44,76,77,2.16,CN,1723853354
108,uturoa,-16.7333,-151.4333,25.53,80,78,10.52,PF,1723853354
109,cabo san lucas,22.8909,-109.9124,29.1,68,57,5.31,MX,1723852912
110,aykhal,66.0,111.5,12.68,72,56,4.15,RU,1723853354
111,saipan,15.1355,145.701,29.39,70,100,5.14,MP,1723853354
112,al kharijah,25.4514,30.5464,28.71,16,0,2.96,EG,1723853354
113,presidencia de la plaza,-27.0015,-59.8424,22.1,63,100,2.42,AR,1723853354
114,ugoofaaru,5.6667,73.0,27.24,82,100,11.32,MV,1723853354
115,nyandoma,61.669,40.1991,11.91,67,94,2.13,RU,1723853354
116,bani walid,31.7566,13.9942,24.28,69,19,2.71,LY,1723853354
117,nizhnyaya poyma,56.1622,97.1933,18.24,75,6,1.9,RU,1723853355
118,punta arenas,-53.15,-70.9167,1.06,93,40,2.06,CL,1723853058
119,kapa'a,22.0752,-159.319,28.18,85,100,7.72,US,1723853355
120,lata,40.1629,-8.3327,15.42,87,0,0.33,PT,1723853355
121,manicore,-5.8092,-61.3003,22.18,97,70,1.39,BR,1723853355
122,whitehorse,60.7161,-135.0538,22.23,28,86,5.36,CA,1723853355
123,howrah,22.5892,88.3103,28.0,94,40,3.09,IN,1723853355
124,saudarkrokur,65.7461,-19.6394,5.06,97,100,1.14,IS,1723853355
125,vadso,70.0744,29.7487,16.09,88,40,4.12,NO,1723853355
126,sao joao da barra,-21.6403,-41.0511,22.61,86,0,7.46,BR,1723853355
127,dompu,-8.5356,118.4622,24.99,73,1,1.35,ID,1723853355
128,lazaro cardenas,17.9583,-102.2,29.43,72,100,4.35,MX,1723853356
129,papatowai,-46.5619,169.4708,6.84,95,100,1.59,NZ,1723853356
130,halle (saale),51.5,12.0,19.95,69,0,1.54,DE,1723853356
131,tazacorte,28.629,-17.9293,22.54,83,20,6.69,ES,1723853356
132,amga,60.8953,131.9608,12.18,75,100,2.23,RU,1723853356
133,andergrove,-21.0833,149.1833,22.97,59,0,1.56,AU,1723853356
134,merizo village,13.2658,144.6691,26.31,76,97,1.79,GU,1723853356
135,katima mulilo,-17.5,24.2667,16.62,36,0,2.57,NA,1723853356
136,murzuq,25.9155,13.9184,31.49,40,33,6.73,LY,1723853356
137,madera,37.1666,-119.8343,36.11,16,0,3.73,US,1723852952
138,san antonio de pale,-1.4014,5.6325,23.28,84,93,5.57,GQ,1723853356
139,severo-yeniseyskiy,60.3725,93.0408,14.82,85,100,1.44,RU,1723853357
140,walvis bay,-22.9575,14.5053,11.97,92,6,3.32,NA,1723853357
141,north ward,-19.2454,146.8075,24.95,69,10,0.51,AU,1723853357
142,isafjordur,66.0755,-23.124,3.47,97,98,4.33,IS,1723853357
143,kindu,-2.95,25.95,22.55,84,59,1.64,CD,1723853357
144,mahina,-17.5065,-149.489,27.87,65,20,3.09,PF,1723853149
145,kingston,17.997,-76.7936,31.53,70,20,8.75,JM,1723853357
146,villamontes,-21.25,-63.5,20.23,35,24,1.0,BO,1723853357
147,ghadamis,30.1337,9.5007,31.85,33,0,3.16,LY,1723853357
148,bashtanka,47.4072,32.4387,20.54,35,61,2.08,UA,1723853357
149,ushuaia,-54.8,-68.3,1.49,99,100,1.62,AR,1723853357
150,ta`u,-14.2336,-169.5144,25.97,81,60,10.17,AS,1723853358
151,joao pinheiro,-17.7425,-46.1725,23.03,36,0,2.61,BR,1723853358
152,hasaki,35.7333,140.8333,28.29,74,100,6.54,JP,1723853358
153,akureyri,65.6835,-18.0878,6.51,96,100,2.05,IS,1723853358
154,vila velha,-20.3297,-40.2925,22.19,87,0,3.6,BR,1723853358
155,san pedro pochutla,15.7333,-96.4667,30.4,73,70,2.27,MX,1723853358
156,megion,61.0296,76.1136,11.01,95,16,2.71,RU,1723853358
157,pursat,12.3333,103.6667,23.43,88,100,0.91,KH,1723853358
158,greymouth,-42.4667,171.2,11.66,90,99,1.28,NZ,1723853358
159,rio preto da eva,-2.6994,-59.6997,29.35,36,36,1.53,BR,1723853358
160,neyshabur,36.2133,58.7958,24.35,38,1,1.18,IR,1723853358
161,atafu village,-8.5421,-172.5159,28.31,76,14,10.29,TK,1723853359
162,port lincoln,-34.7333,135.8667,13.63,78,68,7.92,AU,1723853359
163,porto novo,6.4965,2.6036,23.99,90,97,3.68,BJ,1723853359
164,al ghayzah,16.2079,52.176,24.66,93,74,3.98,YE,1723853359
165,vuktyl,63.8567,57.3094,9.5,95,43,2.58,RU,1723853359
166,vigan,17.5747,120.3869,27.99,82,100,2.65,PH,1723853359
167,georgetown,5.4112,100.3354,27.96,78,20,1.54,MY,1723853359
168,colares,38.7992,-9.4469,25.55,51,0,10.26,PT,1723853359
169,yatou,37.15,122.3833,27.52,76,14,1.23,CN,1723853359
170,parambu,-6.2111,-40.6944,21.46,36,25,1.64,BR,1723853359
171,margaret river,-33.95,115.0667,13.58,92,100,3.94,AU,1723853359
172,hamilton,39.1834,-84.5333,26.51,88,0,0.89,US,1723853082
173,olonkinbyen,70.9221,-8.7187,5.43,95,94,3.81,SJ,1723853360
174,vorkuta,67.5,64.0,12.22,95,88,5.22,RU,1723853360
175,keflavik,64.0049,-22.5624,8.24,100,0,2.57,IS,1723853360
176,mount gambier,-37.8333,140.7667,12.36,91,89,3.46,AU,1723853360
177,hithadhoo,-0.6,73.0833,28.68,76,86,8.6,MV,1723853360
178,aracataca,10.5918,-74.1898,26.95,84,99,1.85,CO,1723853360
179,turbat,26.0023,63.044,28.03,74,93,1.1,PK,1723853360
180,siwa oasis,29.2041,25.5195,29.41,44,0,4.17,EG,1723853360
181,lodwar,3.1191,35.5973,28.83,52,91,0.85,KE,1723853361
182,udachny,66.4167,112.4,13.68,68,2,3.24,RU,1723853361
183,carnarvon,-24.8667,113.6333,19.66,71,5,5.68,AU,1723853361
184,palu,-0.8917,119.8707,27.64,77,2,1.01,ID,1723853361
185,tver,56.8619,35.8931,15.01,78,96,2.44,RU,1723853361
186,geraldton,-28.7667,114.6,13.23,94,20,7.2,AU,1723853361
187,bridgewater,44.3835,-64.5155,18.95,87,19,0.63,CA,1723853361
188,nadym,65.5333,72.5167,13.91,91,100,2.29,RU,1723853361
189,port saint john's,-31.6229,29.5448,18.42,32,0,3.68,ZA,1723853361
190,port macquarie,-31.4333,152.9167,17.82,85,61,0.89,AU,1723853204
191,lospalos,-8.5186,127.0025,23.47,66,79,2.99,TL,1723853361
192,krasnoarmeysk,51.0239,45.6969,13.54,62,23,4.01,RU,1723853362
193,kandira,41.0736,30.1746,20.74,73,0,3.96,TR,1723853362
194,capayan,-28.761,-66.0502,14.43,49,50,1.32,AR,1723853362
195,kununurra,-15.7667,128.7333,24.99,53,1,0.0,AU,1723853362
196,dawei,14.0833,98.2,25.38,89,100,0.97,MM,1723853362
197,queenstown,-31.8976,26.8753,10.82,18,0,3.31,ZA,1723853362
198,la passe,45.5549,-0.8967,18.85,81,30,2.25,FR,1723853362
199,tazovsky,67.4667,78.7,12.03,95,100,5.1,RU,1723853362
200,port lavaca,28.615,-96.6261,32.81,74,30,5.36,US,1723853362
201,vilyuchinsk,52.9306,158.4028,15.15,56,1,1.97,RU,1723853362
202,klyuchi,52.2667,79.1667,16.12,71,50,3.68,RU,1723853362
203,l'aquila,42.365,13.3935,24.3,74,96,2.24,IT,1723853363
204,sao vicente,-23.9631,-46.3919,22.09,64,0,2.04,BR,1723853363
205,barra de santo antonio,-9.4047,-35.5072,24.1,67,11,5.34,BR,1723853363
206,alaghsas,17.0187,8.0168,28.21,61,42,7.47,NE,1723853363
207,lompoc,34.6391,-120.4579,23.85,72,0,5.66,US,1723853362
208,thaon-les-vosges,48.25,6.4167,16.46,90,65,1.17,FR,1723853363
209,raja,8.4596,25.678,20.81,97,89,1.74,SS,1723853363
210,port hedland,-20.3167,118.5667,19.03,63,0,0.0,AU,1723853363
211,dul'durga,50.6761,113.5931,16.4,90,100,1.89,RU,1723853363
212,argo,37.6333,22.7333,28.68,41,1,2.01,GR,1723853363
213,taroudant,30.4703,-8.877,22.17,72,0,1.03,MA,1723853363
214,alta,69.9689,23.2717,11.77,81,75,12.96,NO,1723853364
215,iron river,46.0927,-88.6423,20.04,87,99,1.6,US,1723853364
216,zhengzhou,34.7578,113.6486,26.69,81,25,2.24,CN,1723853364
217,utrik,11.2278,169.8474,28.33,80,91,7.7,MH,1723853364
218,metlili chaamba,32.2667,3.6333,29.52,28,1,2.57,DZ,1723853364
219,nobeoka,32.5833,131.6667,30.39,65,84,1.15,JP,1723853364
220,nuku'alofa,-21.1333,-175.2,21.93,71,79,9.35,TO,1723853364
221,akjoujt,19.6969,-14.4164,32.51,48,93,6.27,MR,1723853364
222,ust-nera,64.5667,143.2,15.91,47,100,1.72,RU,1723853364
223,isangel,-19.55,169.2667,25.95,65,8,2.91,VU,1723853364
224,shingu,33.7333,135.9833,31.63,58,2,0.57,JP,1723853364
225,sena madureira,-9.0656,-68.6569,26.75,51,37,1.36,BR,1723853364
226,vernon,50.2581,-119.2691,19.86,85,100,1.94,CA,1723853365
227,kuala terengganu,5.3302,103.1408,26.09,85,100,1.64,MY,1723853365
228,susuman,62.7833,148.1667,14.61,44,100,0.84,RU,1723853365
229,egilsstadir,65.2653,-14.3948,8.42,87,100,1.63,IS,1723853365
230,nemuro,43.3236,145.575,15.36,92,100,6.56,JP,1723853365
231,motueka,-41.1333,173.0167,14.5,74,100,1.19,NZ,1723853365
232,carauari,-4.8828,-66.8958,24.03,80,50,1.21,BR,1723853365
233,adam,22.3756,57.5233,29.51,59,58,3.58,OM,1723853365
234,lashio,22.9333,97.75,20.91,100,100,0.53,MM,1723853366
235,kedougou,12.5579,-12.1743,23.98,94,89,2.92,SN,1723853366
236,benjamin constant,-4.3831,-70.0311,26.07,80,68,1.43,BR,1723853366
237,neiafu,-18.65,-173.9833,25.38,69,75,6.17,TO,1723853366
238,gongchangling,41.1167,123.45,27.03,80,100,0.32,CN,1723853366
239,san nicolas,18.1725,120.5953,27.85,78,99,1.86,PH,1723853366
240,bandarbeyla,9.4942,50.8122,24.72,81,97,13.36,SO,1723853366
241,sona,45.4388,10.8255,22.51,88,0,1.54,IT,1723853366
242,guerrero negro,27.9769,-114.0611,24.71,61,0,7.02,MX,1723853366
243,dzhambeyty,50.2536,52.595,18.06,42,86,4.1,KZ,1723853367
244,baukau,51.5526,7.2042,20.53,90,100,2.38,DE,1723853367
245,bandon,51.7469,-8.7425,12.77,76,84,2.82,IE,1723853367
246,port alfred,-33.5906,26.891,16.85,44,0,3.25,ZA,1723853367
247,cannonvale,-20.2833,148.7,21.66,53,2,0.61,AU,1723853367
248,nar'yan-mar,67.6713,53.087,6.61,92,10,3.69,RU,1723853367
249,nelson bay,-32.7167,152.15,17.84,77,75,4.47,AU,1723853367
250,bijie,27.3125,105.2942,19.59,81,19,0.55,CN,1723853367
251,deniliquin,-35.5333,144.9667,9.68,93,72,3.95,AU,1723853367
252,kstovo,56.1473,44.1979,10.66,95,6,2.54,RU,1723853367
253,sommatino,37.3359,13.9967,29.62,39,5,2.05,IT,1723853367
254,savyntsi,49.4026,37.0627,15.29,46,72,1.75,UA,1723853368
255,upata,8.0086,-62.3989,24.93,75,94,0.94,VE,1723853368
256,saldanha,-33.0117,17.9442,11.58,88,5,3.53,ZA,1723853368
257,castillos,-34.1667,-53.8333,9.09,94,100,2.12,UY,1723853368
258,amstetten,48.1229,14.8721,18.62,94,90,0.72,AT,1723853368
259,ponta delgada,37.7333,-25.6667,24.4,83,40,4.12,PT,1723853368
260,mae sai,20.4335,99.8762,22.72,100,100,0.53,TH,1723853368
261,aasiaat,68.7098,-52.8699,-0.03,90,77,0.79,GL,1723853368
262,okhotsk,59.3833,143.3,8.68,88,100,1.59,RU,1723853369
263,fountain,38.6822,-104.7008,30.8,29,75,5.66,US,1723853369
264,patnongon,10.9132,121.9937,28.06,74,95,0.66,PH,1723853369
265,mineros,-17.1167,-63.2333,25.92,45,0,2.07,BO,1723853369
266,bredasdorp,-34.5322,20.0403,7.73,90,0,2.16,ZA,1723853369
267,bubaque,11.2833,-15.8333,26.54,87,87,8.51,GW,1723853369
268,touros,-5.1989,-35.4608,24.13,74,86,7.65,BR,1723853369
269,port augusta,-32.5,137.7667,14.08,64,4,6.42,AU,1723853369
270,mulayjah,27.271,48.4242,35.57,14,10,4.96,SA,1723853369
271,alofi,-19.0595,-169.9187,25.94,53,57,7.72,NU,1723853369
272,funadhoo,6.15,73.2667,27.17,82,100,12.57,MV,1723853369
273,pagar alam,-4.0167,103.2667,20.28,92,96,0.72,ID,1723853369
274,ghat,24.9647,10.1728,26.44,68,100,2.28,LY,1723853370
275,mirny,62.5353,113.9611,13.67,75,60,1.66,RU,1723853370
276,codrington,-38.2667,141.9667,11.97,90,100,5.97,AU,1723853370
277,tezontepec,19.8833,-98.8167,18.44,77,96,4.19,MX,1723853370
278,itoman,26.1247,127.6694,30.61,81,75,2.57,JP,1723853370
279,mandalgovi,45.7625,106.2708,12.39,85,90,2.41,MN,1723853370
280,dudinka,69.4058,86.1778,12.75,83,100,3.82,RU,1723853370
281,kas,36.2018,29.6377,29.46,33,0,3.14,TR,1723853370
282,katihar,25.5333,87.5833,27.42,85,2,2.47,IN,1723853370
283,buka,40.8108,69.1986,21.85,29,30,1.35,UZ,1723853370
284,chonchi,-42.6128,-73.8092,4.51,96,68,1.16,CL,1723853370
285,sisimiut,66.9395,-53.6735,3.38,86,64,2.47,GL,1723853371
286,borba,-4.3878,-59.5939,28.9,48,45,1.51,BR,1723853371
287,wanning,18.8003,110.3967,27.67,86,100,3.58,CN,1723853371
288,kuanda,56.3161,116.0806,17.27,62,0,0.7,RU,1723853371
289,devarkonda,16.7,78.9333,25.9,89,100,2.92,IN,1723853371
290,imperial beach,32.5839,-117.1131,26.86,70,40,5.66,US,1723853371
291,ta'izz,13.5,44.0,21.77,61,100,2.2,YE,1723853371
292,keren,15.7778,38.4581,18.52,94,100,1.61,ER,1723853371
293,sittwe,20.15,92.9,26.61,87,96,3.84,MM,1723853371
294,stettler,52.3168,-112.7186,24.56,32,95,6.03,CA,1723853371
295,alto barinas,8.5931,-70.2261,24.64,86,61,1.83,VE,1723853371
296,polyarnyy,69.1989,33.4478,15.15,93,100,5.54,RU,1723853372
297,palangkaraya,-2.2,113.8333,25.95,79,48,1.34,ID,1723853372
298,arraial do cabo,-22.9661,-42.0278,22.13,87,0,9.51,BR,1723853372
299,tobelo,1.7284,128.0095,26.98,81,100,0.36,ID,1723853372
300,amungan,15.3652,119.9582,28.7,68,64,0.25,PH,1723853372
301,les anglais,18.3054,-74.2197,27.12,80,98,1.77,HT,1723853372
302,forbes,-33.3833,148.0167,11.3,75,46,5.42,AU,1723853372
303,nieuw amsterdam,5.8833,-55.0833,26.45,81,3,4.49,SR,1723853372
304,island harbour,50.724,-1.2758,15.52,88,15,1.34,GB,1723853372
305,tomohon,1.3346,124.8392,21.52,72,70,1.4,ID,1723853372
306,xiongzhou,25.1167,114.3,26.29,94,100,0.45,CN,1723853372
307,lan sak,15.4529,99.5761,26.5,76,100,0.74,TH,1723853373
308,la'ie,21.6477,-157.9253,30.66,72,14,1.79,US,1723853373
309,fort mcmurray,56.7268,-111.381,18.77,58,100,2.85,CA,1723853373
310,ga-kgapane,-23.6333,30.2167,14.78,46,0,1.73,ZA,1723853373
311,nuuk,64.1835,-51.7216,4.34,87,75,5.14,GL,1723853373
312,zhalantun,48.0,122.7167,21.02,80,100,2.75,CN,1723853373
313,quellon,-43.1167,-73.6167,4.34,85,63,2.52,CL,1723853373
314,fisterra,42.9049,-9.2629,19.15,98,27,1.82,ES,1723853373
315,selfoss,63.9331,-20.9971,8.91,82,36,2.18,IS,1723853373
316,glace bay,46.1969,-59.957,17.16,95,14,1.34,CA,1723853373
317,broken hill,-31.95,141.4333,12.35,57,0,9.15,AU,1723853374
318,carahue,-38.7,-73.1667,3.27,98,7,1.69,CL,1723853374
319,cangzhou,38.3167,116.8667,27.29,67,67,2.1,CN,1723853374
320,chernyshevskiy,63.0128,112.4714,13.27,72,65,2.28,RU,1723853374
321,lodja,-3.4833,23.4333,21.1,83,16,0.58,CD,1723853374
322,acarau,-2.8856,-40.12,25.14,82,84,7.73,BR,1723853374
323,lorengau,-2.0226,147.2712,27.47,84,100,4.39,PG,1723853374
324,alice springs,-23.7,133.8833,16.75,42,0,1.03,AU,1723853374
325,crane,31.3974,-102.3501,36.54,23,0,6.61,US,1723853374
326,kodiak,57.79,-152.4072,13.73,88,75,3.09,US,1723853374
327,christchurch,-43.5333,172.6333,13.01,80,75,6.17,NZ,1723853143
328,nouadhibou,20.931,-17.0347,20.83,91,1,5.84,MR,1723853375
329,lionel town,17.8101,-77.2406,28.28,79,100,3.14,JM,1723853375
330,manadhoo,5.7667,73.3833,26.88,83,100,12.21,MV,1723853375
331,trairi,-3.2778,-39.2689,24.98,83,80,5.29,BR,1723853375
332,weno,7.4515,151.8468,29.07,77,90,5.6,FM,1723853375
333,anadyr,64.75,177.4833,12.28,66,40,6.0,RU,1723853375
334,ferkessedougou,9.6,-5.2,22.55,96,95,2.27,CI,1723853375
335,mildura,-34.2,142.15,13.93,75,39,10.39,AU,1723853369
336,lillehammer,61.1146,10.4674,8.68,86,4,0.73,NO,1723853375
337,nogliki,51.8333,143.1667,16.39,77,92,3.14,RU,1723853375
338,taltal,-25.4,-70.4833,14.82,79,73,2.74,CL,1723853375
339,minas de marcona,-15.2119,-75.1103,11.39,84,16,4.88,PE,1723853375
340,sandnessjoen,66.0217,12.6316,13.15,79,85,6.71,NO,1723853376
341,igarka,67.4667,86.5833,12.04,88,100,5.96,RU,1723853376
342,fortuna,40.5982,-124.1573,21.1,68,20,5.66,US,1723853376
343,altai,46.3722,96.2583,14.03,38,0,0.9,MN,1723853376
344,flying fish cove,-10.4217,105.6791,23.82,83,75,5.14,CX,1723853376
345,tindouf,27.6711,-8.1474,33.62,19,0,6.66,DZ,1723853376
346,saynshand,44.8824,110.1163,20.88,64,21,1.89,MN,1723853376
347,beledweyne,4.7358,45.2036,23.34,75,16,8.75,SO,1723853376
348,sarangani,5.4033,125.4636,28.43,75,20,4.17,PH,1723853376
349,beloyarskiy,63.7119,66.6722,10.56,97,56,1.15,RU,1723853376
350,trebon,49.0036,14.7707,20.75,86,11,1.12,CZ,1723853377
351,al jabin,14.704,43.599,22.05,77,100,1.16,YE,1723853377
352,dhidhdhoo,6.8833,73.1,25.95,88,100,12.33,MV,1723853377
353,zelenogradsk,54.9589,20.4767,20.03,94,0,2.0,RU,1723853377
354,vorgashor,67.5833,63.95,11.9,95,91,5.19,RU,1723853377
355,nago,26.5881,127.9761,29.57,74,93,2.43,JP,1723853377
356,remire-montjoly,4.9167,-52.2667,26.02,89,0,2.57,GF,1723853377
357,kapuskasing,49.4169,-82.4331,20.38,75,92,1.1,CA,1723853377
358,tommot,58.9564,126.2925,14.72,66,54,1.26,RU,1723853377
359,villa gesell,-37.2639,-56.973,8.46,78,66,6.76,AR,1723853377
360,piti village,13.4626,144.6933,26.49,94,100,0.0,GU,1723853378
361,naze,28.3667,129.4833,28.41,76,77,0.9,JP,1723853378
362,tymovskoye,50.8456,142.655,14.34,79,99,3.89,RU,1723853378
363,metu,8.3,35.5833,14.08,98,99,0.84,ET,1723853378
364,mundri,-6.9558,111.71,23.6,64,22,1.75,ID,1723853378
365,lihue,21.9789,-159.3672,27.77,81,100,7.72,US,1723853378
366,colonia,50.9333,6.95,21.74,86,75,1.54,DE,1723853244
367,sniatyn,48.4469,25.5694,18.92,87,36,1.56,UA,1723853378
368,ola,59.5833,151.2833,13.82,55,100,1.31,RU,1723853379
369,zakamensk,50.3741,103.2863,13.72,72,57,0.7,RU,1723853379
370,beyneu,45.3167,55.2,19.67,50,2,3.39,KZ,1723853379
371,abadeh,31.1608,52.6506,25.42,16,0,2.07,IR,1723853379
372,buala,-8.145,159.5921,28.4,76,100,4.45,SB,1723853379
373,cantilan,9.3336,125.9775,28.81,73,97,1.53,PH,1723853379
374,jackson,42.4165,-122.8345,32.26,30,0,4.02,US,1723853379
375,gereida,11.2811,25.1414,24.25,82,94,4.63,SD,1723853379
376,piacabucu,-10.4056,-36.4344,22.85,79,17,3.56,BR,1723853379
377,ulan bator,47.9077,106.8832,15.54,85,93,1.17,MN,1723853379
378,calama,-22.4667,-68.9333,14.27,8,0,2.57,CL,1723853379
379,pisco,-13.7,-76.2167,16.03,88,100,4.12,PE,1723853380
380,taoudenni,22.6783,-3.9836,36.79,28,19,4.68,ML,1723853380
381,ciudad bolivar,8.1222,-63.5497,29.2,59,100,1.0,VE,1723853380
382,lhokseumawe,5.1801,97.1507,24.39,95,100,2.79,ID,1723853380
383,baiti,13.745,-14.7482,24.57,96,73,3.18,SN,1723853380
384,asipovichy,53.2933,28.6422,18.07,64,87,2.16,BY,1723853380
385,orapa,-21.2833,25.3667,14.49,45,0,4.39,BW,1723853380
386,goundam,16.4145,-3.6708,25.71,85,90,7.18,ML,1723853380
387,masjed soleyman,31.9364,49.3039,35.55,12,0,1.5,IR,1723853380
388,huarmey,-10.0681,-78.1522,17.24,81,6,3.83,PE,1723853380
389,acala,16.5667,-92.8,29.12,91,49,1.44,MX,1723853381
390,kirakira,-10.4544,161.9205,28.95,68,94,5.59,SB,1723853381
391,kerema,-7.9631,145.7785,26.9,81,100,0.64,PG,1723853381
392,rongelap,11.1635,166.8941,28.55,77,89,5.42,MH,1723853381
393,saint-philippe,-21.3585,55.7679,21.3,83,29,4.01,RE,1723853381
394,san patricio,28.017,-97.5169,32.97,57,65,6.98,US,1723853166
395,petawawa,45.9001,-77.3328,24.88,60,87,2.34,CA,1723853381
396,sept-iles,50.2001,-66.3821,15.59,93,42,0.89,CA,1723853381
397,kudahuvadhoo,2.6708,72.8944,28.43,77,100,9.44,MV,1723853381
398,ad dabbah,18.05,30.95,34.48,39,79,4.89,SD,1723853381
399,marlin,31.3063,-96.898,36.91,26,27,4.93,US,1723853381
400,sogndal,61.2283,7.1003,14.21,71,100,4.12,NO,1723853382
401,miquelon,47.0975,-56.3814,17.04,87,52,2.07,PM,1723853382
402,kofele,7.0667,38.7833,9.01,93,68,1.64,ET,1723853382
403,tomatlan,19.9333,-105.25,26.92,84,100,1.29,MX,1723853382
404,gizo,-8.103,156.8419,27.9,76,95,3.66,SB,1723853382
405,piriyapatna,12.3397,76.0992,21.2,97,100,1.74,IN,1723853382
406,khurba,50.4072,136.8819,21.11,73,15,2.01,RU,1723853382
407,saint-pierre,-21.3393,55.4781,20.82,73,0,3.6,RE,1723853382
408,svetlyy,54.675,20.1347,18.56,89,7,2.1,RU,1723853382
409,san juan,-31.5375,-68.5364,14.33,44,6,3.93,AR,1723853382
410,tokar,18.4254,37.729,29.62,64,49,16.18,SD,1723853382
411,muisne,0.6,-80.0333,24.16,85,39,3.83,EC,1723853382
412,razampeta,14.1833,79.1667,27.11,84,100,0.89,IN,1723853383
413,port de pollenca,39.9075,3.0814,24.05,75,0,3.82,ES,1723853383
414,grand falls-windsor,48.9332,-55.6649,20.28,74,72,2.59,CA,1723853383
415,new norfolk,-42.7826,147.0587,11.62,99,100,1.29,AU,1723853383
416,garoua boulai,5.8833,14.55,17.51,97,97,1.21,CM,1723853383
417,harnosand,62.6323,17.9379,9.0,65,0,0.88,SE,1723853383
418,kavieng,-2.5744,150.7967,25.9,87,100,4.24,PG,1723853383
419,uzhur,55.3036,89.8339,16.63,90,78,1.96,RU,1723853383
420,santa rosalia,27.3167,-112.2833,32.88,50,5,2.53,MX,1723853383
421,novoarkhanhel's'k,48.658,30.8182,19.14,42,7,4.12,UA,1723853383
422,valparaiso,-33.0393,-71.6273,12.8,71,0,3.09,CL,1723853383
423,luanda,-8.8368,13.2343,20.29,85,3,4.37,AO,1723853384
424,axim,4.8699,-2.2405,23.23,92,100,4.37,GH,1723853384
425,sitka,57.0531,-135.33,17.94,63,40,6.17,US,1723853384
426,novoselitskoye,44.7508,43.4369,17.3,37,2,1.45,RU,1723853384
427,gadzhiyevo,69.2551,33.3362,15.4,94,100,4.96,RU,1723853384
428,siverskiy,59.3544,30.0783,15.85,98,100,1.93,RU,1723853384
429,cidreira,-30.1811,-50.2056,16.13,80,71,1.99,BR,1723853384
430,inirida,3.8653,-67.9239,26.26,72,99,1.37,CO,1723853384
431,rodolfo sanchez taboada,31.7167,-116.5667,21.72,60,100,4.02,MX,1723853384
432,alto araguaia,-17.3147,-53.2153,23.72,28,0,1.78,BR,1723853385
433,altamira,-3.2033,-52.2064,27.1,43,26,0.67,BR,1723853385
434,mersing,2.4312,103.8405,25.99,92,95,2.51,MY,1723853385
435,fang,19.9169,99.2145,22.99,99,100,0.62,TH,1723853385
436,uliastay,47.7417,96.8444,12.77,42,0,2.08,MN,1723853385
437,alaca,40.1683,34.8425,12.56,88,0,3.77,TR,1723853385
438,niquelandia,-14.4739,-48.4597,24.52,32,0,2.21,BR,1723853385
439,tefe,-3.3542,-64.7114,26.56,62,50,0.44,BR,1723853385
440,mtwara,-10.2667,40.1833,22.13,90,3,5.24,TZ,1723853385
441,kerikeri,-35.2268,173.9474,16.62,94,100,4.92,NZ,1723853385
442,yarmouth,41.7057,-70.2286,19.42,89,0,1.54,US,1723853385
443,xinyuan,37.3,99.0,4.99,76,35,1.35,CN,1723853386
444,nikolayevsk-on-amure,53.1406,140.73,15.0,77,74,1.55,RU,1723853386
445,mount pearl,47.5166,-52.7813,18.31,83,16,0.45,CA,1723853251
446,menongue,-14.6585,17.691,12.9,25,0,1.55,AO,1723853386
447,sebezh,56.2955,28.4654,16.64,95,100,2.19,RU,1723853386
448,sao gabriel da cachoeira,-0.1303,-67.0892,24.41,85,66,0.84,BR,1723853386
449,khovd,48.0056,91.6419,20.88,28,42,2.96,MN,1723853386
450,coahuayana de hidalgo,18.7,-103.6583,28.63,79,100,1.62,MX,1723853386
451,jos,9.9167,8.9,17.44,94,97,2.6,NG,1723853386
452,ouesso,1.6136,16.0517,21.52,96,97,1.29,CG,1723853387
453,myshkin,57.7897,38.4545,14.35,79,96,1.89,RU,1723853387
454,barreiras,-12.1528,-44.99,25.16,36,0,1.57,BR,1723853387
455,roma,43.2128,-75.4557,25.06,76,0,2.06,US,1723853387
456,laela,-8.5667,32.05,13.94,61,4,1.43,TZ,1723853387
457,buedu,8.2803,-10.3719,21.42,99,94,1.64,SL,1723853387
458,tolanaro,-25.0319,46.9987,19.12,73,94,3.37,MG,1723853387
459,ust'-barguzin,53.45,108.9833,17.08,63,98,2.98,RU,1723853387
460,loukhi,66.0764,33.0381,15.69,98,100,2.91,RU,1723853387
461,swakopmund,-22.6833,14.5333,12.21,89,7,2.44,NA,1723853387
462,nizhnesortymskiy,62.4397,71.7603,11.78,88,18,2.3,RU,1723853388
463,tsiombe,-25.3,45.4833,19.49,65,56,5.31,MG,1723853388
464,princeville,45.7668,-61.2985,18.51,94,63,1.62,CA,1723853388
465,mishelevka,52.8575,103.1719,14.49,79,36,3.83,RU,1723853388
466,pierre,44.3683,-100.351,28.51,48,0,4.63,US,1723853303
467,illizi,26.4833,8.4667,28.6,54,91,5.33,DZ,1723853388
468,labrador city,52.9463,-66.9114,18.9,69,97,2.6,CA,1723853388
469,pupiales,0.8714,-77.6403,7.92,91,55,2.43,CO,1723853388
470,rundu,-17.9333,19.7667,15.12,16,0,2.7,NA,1723853389
471,palikir - national government center,6.9248,158.1611,30.47,74,75,5.14,FM,1723853389
472,richards bay,-28.783,32.0377,17.69,68,0,3.79,ZA,1723853389
473,san luis rio colorado,32.4631,-114.7767,42.1,24,75,7.64,MX,1723853389
474,chirilagua,13.2203,-88.1386,26.18,88,68,1.26,SV,1723853389
475,berdigestyakh,62.0989,126.6992,16.35,36,25,2.07,RU,1723853389
476,krasne,49.9145,24.6134,19.71,76,0,1.78,UA,1723853389
477,zheleznodorozhnyy,55.7503,38.0042,17.27,69,88,0.9,RU,1723853389
478,jebrail,39.3992,47.0283,20.01,70,100,1.07,AZ,1723853389
479,bonthe,7.5264,-12.505,25.41,84,77,3.79,SL,1723853389
480,puttalam,8.0362,79.8283,26.89,86,98,9.15,LK,1723853389
481,luwuk,-0.9516,122.7875,24.72,83,57,2.59,ID,1723853389
482,mullovka,54.2,49.4,13.3,90,65,5.05,RU,1723853390
483,bouar,5.934,15.596,18.22,97,99,0.77,CF,1723853390
484,brady,31.1352,-99.3351,37.25,26,0,4.12,US,1723853390
485,ringkobing,56.0901,8.244,14.99,77,75,2.57,DK,1723853390
486,waingapu,-9.6567,120.2641,25.17,74,3,3.56,ID,1723853390
487,shira,54.4911,89.9531,17.78,84,85,1.35,RU,1723853390
488,valle de la pascua,9.2155,-66.0073,24.78,84,9,1.17,VE,1723853390
489,nabire,-3.3667,135.4833,26.07,89,76,0.69,ID,1723853390
490,sechura,-5.5569,-80.8222,19.64,69,15,6.86,PE,1723853390
491,dunay,42.8803,132.3375,19.42,87,100,4.16,RU,1723853391
492,kshenskiy,51.8408,37.7136,14.58,74,19,2.7,RU,1723853391
493,mil'kovo,55.6078,37.7956,16.86,70,94,2.11,RU,1723853391
494,itabera,-23.8619,-49.1372,20.47,39,0,2.01,BR,1723853391
495,aripuana,-9.1667,-60.6333,23.73,72,30,1.06,BR,1723853391
496,hauterive,46.0901,3.4459,17.36,75,70,1.48,FR,1723853391
497,red deer,52.2668,-113.802,16.83,71,98,0.28,CA,1723853391
498,smithers,54.7804,-127.1743,23.18,33,40,3.6,CA,1723853103
499,sorong,-0.8833,131.25,26.24,87,72,3.02,ID,1723853391
500,isla mujeres,21.2311,-86.731,29.03,77,39,2.71,MX,1723853392
501,crookston,47.7741,-96.6081,23.06,73,100,5.66,US,1723853392
502,sungjibaegam,41.2428,128.7989,20.24,80,24,0.16,KP,1723853392
503,mahanoro,-19.9,48.8,19.81,84,91,4.21,MG,1723853392
504,'ain el turk,35.7438,-0.7693,24.38,78,0,0.51,DZ,1723853392
505,at taj,24.2049,23.2857,31.77,17,1,3.89,LY,1723853392
506,joshimath,30.5667,79.5667,17.0,94,96,0.41,IN,1723853392
507,dunedin,-45.8742,170.5036,9.89,74,98,4.47,NZ,1723853392
508,razdol'noye,45.7708,33.4878,20.98,74,40,0.87,UA,1723853392
509,namsos,64.4662,11.4957,11.95,94,100,1.54,NO,1723853392
510,brookings,44.3114,-96.7984,22.32,79,100,6.69,US,1723853392
511,santa elena de uairen,4.6167,-61.1333,19.7,77,2,1.08,VE,1723853393
512,podporozh'ye,60.9112,34.1706,16.03,99,100,2.51,RU,1723853393
513,ciudad del carmen,18.6333,-91.8333,31.02,70,40,3.09,MX,1723853393
514,chittarkonda,18.1167,82.0833,23.18,95,100,1.37,IN,1723853393
515,port-cartier,50.0334,-66.8654,15.3,96,59,1.88,CA,1723853393
516,igrim,63.1906,64.4162,11.6,98,76,1.38,RU,1723853393
517,ardestan,33.3761,52.3694,28.08,39,0,3.14,IR,1723853393
518,mikomeseng,2.1361,10.6132,19.55,99,40,1.01,GQ,1723853393
519,kongolo,-5.3833,27.0,25.93,32,46,1.11,CD,1723853393
520,vohibinany,-17.35,49.0333,16.63,99,19,0.71,MG,1723853394
521,hammerfest,70.6634,23.6821,13.25,88,75,8.75,NO,1723853394
522,tofol,5.3248,163.0078,28.43,72,59,3.06,FM,1723853394
523,pont rouge,48.8833,-72.0825,22.62,68,33,2.47,CA,1723853394
524,ornskoldsvik,63.2909,18.7153,9.53,87,3,2.57,SE,1723853394
525,howard springs,-12.497,131.047,27.15,70,72,2.76,AU,1723853394
526,olinda,-8.0089,-34.8553,24.84,62,18,6.63,BR,1723853394
527,cynthiana,38.3904,-84.2941,27.58,47,50,5.79,US,1723853394
528,amahai,-3.3333,128.9167,25.55,84,84,1.76,ID,1723853394
529,puerto armuelles,8.2833,-82.8667,27.83,78,100,3.13,PA,1723853394
530,preobrazheniye,42.9019,133.9064,20.65,85,50,2.51,RU,1723853394
531,kulhudhuffushi,6.6221,73.07,25.73,89,100,12.68,MV,1723853394
532,forster,-32.1667,152.5167,19.6,64,90,1.44,AU,1723853395
533,tshabong,-26.05,22.45,14.04,12,0,5.76,BW,1723853395
534,jaisalmer,26.9147,70.9181,26.88,85,100,1.74,IN,1723853395
535,ar ruways,24.1103,52.7306,31.53,75,52,2.62,AE,1723853395
536,korla,41.7597,86.1469,28.86,32,0,3.79,CN,1723853395
537,lagodekhi,41.8268,46.2767,17.8,81,67,1.14,GE,1723853395
538,shreveport,32.5251,-93.7502,37.03,42,75,4.63,US,1723853395
539,tres isletas,-26.3407,-60.4321,23.43,50,100,2.55,AR,1723853395
540,regina,50.4501,-104.6178,24.99,41,27,3.58,CA,1723853395
541,nicoya,10.1483,-85.452,25.32,90,100,0.22,CR,1723853395
542,zhangjiakou,40.81,114.8794,21.46,78,94,0.43,CN,1723853395
543,rumoi,43.9344,141.6428,21.29,90,89,3.15,JP,1723853396
544,spearfish,44.4908,-103.8594,27.93,28,0,6.69,US,1723853396
545,long beach,33.767,-118.1892,28.39,72,0,4.63,US,1723853124
546,belvedere marittimo,39.6179,15.8617,26.81,78,13,0.6,IT,1723853396
547,aromashevo,56.8602,68.6375,11.19,91,99,2.71,RU,1723853396
548,atherton,53.5237,-2.4935,12.94,84,29,1.67,GB,1723853396
549,sereflikochisar,38.9393,33.5386,17.3,54,0,5.58,TR,1723853396
550,alvorada,-12.48,-49.1247,28.21,26,13,1.92,BR,1723853213
551,konarka,19.9,86.1167,27.72,82,96,2.62,IN,1723853396
552,kailua-kona,19.6406,-155.9956,29.04,79,75,3.6,US,1723853397
553,anton lizardo,19.05,-95.9833,31.23,79,88,3.6,MX,1723853397
554,mariental,-24.6333,17.9667,16.65,19,8,2.44,NA,1723853397
555,develi,38.3906,35.4922,13.72,58,0,0.66,TR,1723853397
556,ilula,-7.6766,36.0366,13.16,71,0,2.3,TZ,1723853397
557,iskitim,54.6366,83.3045,14.5,87,11,2.69,RU,1723853397
558,machico,32.7,-16.7667,30.35,28,20,9.26,PT,1723853397
559,gamba,-2.65,10.0,21.82,92,10,1.58,GA,1723853397
560,dryden,49.7833,-92.7503,20.16,83,75,5.14,CA,1723853397
561,titao,13.7667,-2.0667,25.44,80,75,4.59,BF,1723853397
562,posto fiscal rolim de moura,-13.0833,-62.2667,30.92,31,40,0.22,BR,1723853397
563,east london,-33.0153,27.9116,18.06,26,0,3.39,ZA,1723853398
564,loen,7.7601,168.2307,28.53,77,79,6.28,MH,1723853398
565,pyhajarvi,67.0701,27.2176,11.77,98,84,3.05,FI,1723853398
566,portland,45.5234,-122.6762,27.53,46,40,4.63,US,1723853128
567,floro,61.5996,5.0328,13.98,77,100,12.86,NO,1723853398
568,fort william,56.8165,-5.1121,13.5,95,98,3.55,GB,1723853398
569,dolinsk,47.35,142.8,14.65,95,100,2.24,RU,1723853398
570,altinyayla,39.2725,36.751,10.11,86,0,2.58,TR,1723853398
571,upington,-28.4478,21.2561,14.13,10,0,4.7,ZA,1723853398
572,tambacounda,13.7539,-13.7586,24.81,94,71,2.86,SN,1723853398
573,kisaran,2.9845,99.6158,23.68,100,100,0.67,ID,1723853398
574,sao felix do xingu,-6.6447,-51.995,25.43,35,4,0.73,BR,1723853399
575,sunagawa,43.4864,141.9056,20.23,98,100,1.45,JP,1723853399
576,fuerte olimpo,-21.0415,-57.8738,28.8,29,0,2.09,PY,1723853399
577,guigang,23.0964,109.6092,26.5,88,40,1.32,CN,1723853399
578,ulladulla,-35.35,150.4667,16.97,50,65,5.06,AU,1723853399
579,lindi,-10.0,39.7167,19.43,94,0,2.12,TZ,1723853399
